{
  "BCN": { "lat": 41.3874, "lng": 2.1686, "city": "Barcelona" },
  "MAD": { "lat": 40.4168, "lng": -3.7038, "city": "Madrid" },
  "AGP": { "lat": 36.7213, "lng": -4.4214, "city": "Malaga" },
  "VLC": { "lat": 39.4699, "lng": -0.3763, "city": "Valencia" },
  "SVQ": { "lat": 37.3891, "lng": -5.9845, "city": "Seville" },
  "PMI": { "lat": 39.5696, "lng": 2.6502, "city": "Palma" },
  "IBZ": { "lat": 38.9067, "lng": 1.4206, "city": "Ibiza" },
  "ROM": { "lat": 41.9028, "lng": 12.4964, "city": "Rome" },
  "FCO": { "lat": 41.9028, "lng": 12.4964, "city": "Rome" },
  "CIA": { "lat": 41.9028, "lng": 12.4964, "city": "Rome" },
  "MIL": { "lat": 45.4642, "lng": 9.19, "city": "Milan" },
  "MXP": { "lat": 45.4642, "lng": 9.19, "city": "Milan" },
  "LIN": { "lat": 45.4642, "lng": 9.19, "city": "Milan" },
  "BGY": { "lat": 45.4642, "lng": 9.19, "city": "Milan" },
  "NAP": { "lat": 40.8518, "lng": 14.2681, "city": "Naples" },
  "VCE": { "lat": 45.4408, "lng": 12.3155, "city": "Venice" },
  "FLR": { "lat": 43.7696, "lng": 11.2558, "city": "Florence" },
  "PAR": { "lat": 48.8566, "lng": 2.3522, "city": "Paris" },
  "CDG": { "lat": 48.8566, "lng": 2.3522, "city": "Paris" },
  "ORY": { "lat": 48.8566, "lng": 2.3522, "city": "Paris" },
  "BVA": { "lat": 48.8566, "lng": 2.3522, "city": "Paris" },
  "LON": { "lat": 51.5074, "lng": -0.1278, "city": "London" },
  "LHR": { "lat": 51.5074, "lng": -0.1278, "city": "London" },
  "LGW": { "lat": 51.5074, "lng": -0.1278, "city": "London" },
  "STN": { "lat": 51.5074, "lng": -0.1278, "city": "London" },
  "LTN": { "lat": 51.5074, "lng": -0.1278, "city": "London" },
  "LCY": { "lat": 51.5074, "lng": -0.1278, "city": "London" },
  "AMS": { "lat": 52.3676, "lng": 4.9041, "city": "Amsterdam" },
  "LIS": { "lat": 38.7223, "lng": -9.1393, "city": "Lisbon" },
  "OPO": { "lat": 41.1579, "lng": -8.6291, "city": "Porto" },
  "ATH": { "lat": 37.9838, "lng": 23.7275, "city": "Athens" },
  "BER": { "lat": 52.52, "lng": 13.405, "city": "Berlin" },
  "MUC": { "lat": 48.1351, "lng": 11.582, "city": "Munich" },
  "FRA": { "lat": 50.1109, "lng": 8.6821, "city": "Frankfurt" },
  "VIE": { "lat": 48.2082, "lng": 16.3738, "city": "Vienna" },
  "PRG": { "lat": 50.0755, "lng": 14.4378, "city": "Prague" },
  "BUD": { "lat": 47.4979, "lng": 19.0402, "city": "Budapest" },
  "DUB": { "lat": 53.3498, "lng": -6.2603, "city": "Dublin" }
}
